{
    "version": 1,
    "elevators": [
        {
            "name": "Agassiz",
            "province": "Manitoba",
            "country": "Canada",
            "status": "existing",
            "type": "concrete",
            "companies": "Viterra",
            "lat": 49.18575,
            "lon": -97.990389,
            "url": "https://www.grainelevators.ca/manitoba/agassiz/",
            "id": "manitoba-agassiz"
        },
        {
            "name": "Alexander",
            "province": "Manitoba",
            "country": "Canada",
            "status": "existing",
            "type": "wooden",
            "companies": "G3, Manitoba Pool, Canadian Wheat Board, CWB, Paterson",
            "lat": 49.829037,
            "lon": -100.294566,
            "url": "https://www.grainelevators.ca/manitoba/alexander/",
            "id": "manitoba-alexander"
        },
        {
            "name": "Angusville",
            "province": "Manitoba",
            "country": "Canada",
            "status": "existing",
            "type": "wooden",
            "companies": "UGG",
            "lat": 50.73714,
            "lon": -101.01932,
            "url": "https://www.grainelevators.ca/manitoba/angusville/",
            "id": "manitoba-angusville"
        },
        {
            "name": "Arborg",
            "province": "Manitoba",
            "country": "Canada",
            "status": "existing",
            "type": "wooden",
            "companies": "Manitoba Pool, Paterson",
            "lat": 50.90795,
            "lon": -97.21818,
            "url": "https://www.grainelevators.ca/manitoba/arborg/",
            "id": "manitoba-arborg"
        },
        {
            "name": "Arden",
            "province": "Manitoba",
            "country": "Canada",
            "status": "lost",
            "type": "wooden",
            "companies": null,
            "lat": 50.27722,
            "lon": -99.2705,
            "url": "https://www.grainelevators.ca/manitoba/arden/",
            "id": "manitoba-arden"
        },
        {
            "name": "Argue",
            "province": "Manitoba",
            "country": "Canada",
            "status": "lost",
            "type": "wooden",
            "companies": null,
            "lat": 49.4475,
            "lon": -100.44649,
            "url": "https://www.grainelevators.ca/manitoba/argue/",
            "id": "manitoba-argue"
        },
        {
            "name": "Austin",
            "province": "Manitoba",
            "country": "Canada",
            "status": "lost",
            "type": "wooden",
            "companies": "Manitoba Pool",
            "lat": 49.95033,
            "lon": -98.93688,
            "url": "https://www.grainelevators.ca/manitoba/austin/",
            "id": "manitoba-austin"
        },
        {
            "name": "Baldur",
            "province": "Manitoba",
            "country": "Canada",
            "status": "existing",
            "type": "wooden",
            "companies": "Manitoba Pool",
            "lat": 49.38552,
            "lon": -99.24401,
            "url": "https://www.grainelevators.ca/manitoba/baldur/",
            "id": "manitoba-baldur"
        },
        {
            "name": "Balmoral",
            "province": "Manitoba",
            "country": "Canada",
            "status": "lost",
            "type": "wooden",
            "companies": "Paterson",
            "lat": 50.25641,
            "lon": -97.31925,
            "url": "https://www.grainelevators.ca/manitoba/balmoral/",
            "id": "manitoba-balmoral"
        },
        {
            "name": "Barnsley",
            "province": "Manitoba",
            "country": "Canada",
            "status": "existing",
            "type": "wooden",
            "companies": "Manitoba Pool, United Grain Growers, UGG",
            "lat": 49.59155,
            "lon": -97.9899,
            "url": "https://www.grainelevators.ca/manitoba/barnsley/",
            "id": "manitoba-barnsley"
        },
        {
            "name": "Basswood",
            "province": "Manitoba",
            "country": "Canada",
            "status": "lost",
            "type": "wooden",
            "companies": "Manitoba Pool",
            "lat": 50.30142,
            "lon": -100.03445,
            "url": "https://www.grainelevators.ca/manitoba/basswood/",
            "id": "manitoba-basswood"
        },
        {
            "name": "Beausejour",
            "province": "Manitoba",
            "country": "Canada",
            "status": "existing",
            "type": "concrete",
            "companies": "Viterra, Manitoba Pool, UGG",
            "lat": 50.06193,
            "lon": -96.51408,
            "url": "https://www.grainelevators.ca/manitoba/beausejour/",
            "id": "manitoba-beausejour"
        },
        {
            "name": "Belmont",
            "province": "Manitoba",
            "country": "Canada",
            "status": "lost",
            "type": "wooden",
            "companies": "United Grain Growers, UGG",
            "lat": 49.40942,
            "lon": -99.45722,
            "url": "https://www.grainelevators.ca/manitoba/belmont/",
            "id": "manitoba-belmont"
        },
        {
            "name": "Beulah",
            "province": "Manitoba",
            "country": "Canada",
            "status": "existing",
            "type": "wooden",
            "companies": "Manitoba Pool",
            "lat": 50.26032,
            "lon": -101.03345,
            "url": "https://www.grainelevators.ca/manitoba/beulah/",
            "id": "manitoba-beulah"
        },
        {
            "name": "Binscarth",
            "province": "Manitoba",
            "country": "Canada",
            "status": "existing",
            "type": "mixed",
            "companies": "Viterra, Manitoba Pool, UGG, Paterson",
            "lat": 50.62536,
            "lon": -101.28323,
            "url": "https://www.grainelevators.ca/manitoba/binscarth/",
            "id": "manitoba-binscarth"
        },
        {
            "name": "Birch River",
            "province": "Manitoba",
            "country": "Canada",
            "status": "lost",
            "type": "wooden",
            "companies": "UGG",
            "lat": 52.39612,
            "lon": -101.10478,
            "url": "https://www.grainelevators.ca/manitoba/birch-river/",
            "id": "manitoba-birch-river"
        },
        {
            "name": "Birdtail",
            "province": "Manitoba",
            "country": "Canada",
            "status": "lost",
            "type": "wooden",
            "companies": "Manitoba Pool, UGG",
            "lat": 50.7269,
            "lon": -100.88728,
            "url": "https://www.grainelevators.ca/manitoba/birdtail/",
            "id": "manitoba-birdtail"
        },
        {
            "name": "Birtle",
            "province": "Manitoba",
            "country": "Canada",
            "status": "existing",
            "type": "wooden",
            "companies": "Manitoba Pool",
            "lat": 50.42184,
            "lon": -101.0462,
            "url": "https://www.grainelevators.ca/manitoba/birtle/",
            "id": "manitoba-birtle"
        },
        {
            "name": "Boissevain",
            "province": "Manitoba",
            "country": "Canada",
            "status": "existing",
            "type": "mixed",
            "companies": "Viterra, Parrish & Heimbecker, Manitoba Pool, UGG, Paterson",
            "lat": 49.2306,
            "lon": -100.05581,
            "url": "https://www.grainelevators.ca/manitoba/boissevain/",
            "id": "manitoba-boissevain"
        },
        {
            "name": "Bowsman",
            "province": "Manitoba",
            "country": "Canada",
            "status": "lost",
            "type": "wooden",
            "companies": "Manitoba Pool",
            "lat": 52.23581,
            "lon": -101.20808,
            "url": "https://www.grainelevators.ca/manitoba/bowsman/",
            "id": "manitoba-bowsman"
        },
        {
            "name": "Bradwardine",
            "province": "Manitoba",
            "country": "Canada",
            "status": "existing",
            "type": "wooden",
            "companies": "Manitoba Pool",
            "lat": 49.99672,
            "lon": -100.46366,
            "url": "https://www.grainelevators.ca/manitoba/bradwardine/",
            "id": "manitoba-bradwardine"
        },
        {
            "name": "Brandon",
            "province": "Manitoba",
            "country": "Canada",
            "status": "lost",
            "type": "wooden",
            "companies": "Cargill, Manitoba Pool, UGG, Paterson",
            "lat": 49.84692,
            "lon": -99.95306,
            "url": "https://www.grainelevators.ca/manitoba/brandon/",
            "id": "manitoba-brandon"
        },
        {
            "name": "Brookdale",
            "province": "Manitoba",
            "country": "Canada",
            "status": "existing",
            "type": "wooden",
            "companies": "Manitoba Pool, UGG",
            "lat": 50.047927,
            "lon": -99.564568,
            "url": "https://www.grainelevators.ca/manitoba/brookdale/",
            "id": "manitoba-brookdale"
        },
        {
            "name": "Brunkild",
            "province": "Manitoba",
            "country": "Canada",
            "status": "existing",
            "type": "wooden",
            "companies": "Richardson Pioneer, Richardson, Manitoba Pool, UGG",
            "lat": 49.59244,
            "lon": -97.57379,
            "url": "https://www.grainelevators.ca/manitoba/brunkild/",
            "id": "manitoba-brunkild"
        },
        {
            "name": "Bunclody",
            "province": "Manitoba",
            "country": "Canada",
            "status": "lost",
            "type": "wooden",
            "companies": null,
            "lat": 49.53611,
            "lon": -100.05308,
            "url": "https://www.grainelevators.ca/manitoba/bunclody/",
            "id": "manitoba-bunclody"
        },
        {
            "name": "Burnside",
            "province": "Manitoba",
            "country": "Canada",
            "status": "lost",
            "type": "wooden",
            "companies": null,
            "lat": 49.96692,
            "lon": -98.46264,
            "url": "https://www.grainelevators.ca/manitoba/burnside/",
            "id": "manitoba-burnside"
        },
        {
            "name": "Clanwilliam",
            "province": "Manitoba",
            "country": "Canada",
            "status": "lost",
            "type": "wooden",
            "companies": "Manitoba Pool",
            "lat": 50.36192,
            "lon": -99.81553,
            "url": "https://www.grainelevators.ca/manitoba/clanwilliam/",
            "id": "manitoba-clanwilliam"
        },
        {
            "name": "Cabot",
            "province": "Manitoba",
            "country": "Canada",
            "status": "lost",
            "type": "wooden",
            "companies": "Paterson",
            "lat": 49.8744,
            "lon": -97.58958,
            "url": "https://www.grainelevators.ca/manitoba/cabot/",
            "id": "manitoba-cabot"
        },
        {
            "name": "Cameron",
            "province": "Manitoba",
            "country": "Canada",
            "status": "existing",
            "type": "wooden",
            "companies": "Manitoba Pool",
            "lat": 49.080694,
            "lon": -101.077944,
            "url": "https://www.grainelevators.ca/manitoba/cameron/",
            "id": "manitoba-cameron"
        },
        {
            "name": "Carberry",
            "province": "Manitoba",
            "country": "Canada",
            "status": "existing",
            "type": "steel",
            "companies": "ADM",
            "lat": 49.86933,
            "lon": -99.36158,
            "url": "https://www.grainelevators.ca/manitoba/carberry/",
            "id": "manitoba-carberry"
        },
        {
            "name": "Cardale",
            "province": "Manitoba",
            "country": "Canada",
            "status": "lost",
            "type": "wooden",
            "companies": "Manitoba Pool",
            "lat": 50.23671,
            "lon": -100.32197,
            "url": "https://www.grainelevators.ca/manitoba/cardale/",
            "id": "manitoba-cardale"
        },
        {
            "name": "Carey",
            "province": "Manitoba",
            "country": "Canada",
            "status": "lost",
            "type": "wooden",
            "companies": "Richardson Pioneer, Richardson, Manitoba Pool",
            "lat": 49.44279,
            "lon": -97.05144,
            "url": "https://www.grainelevators.ca/manitoba/carey/",
            "id": "manitoba-carey"
        },
        {
            "name": "Carman",
            "province": "Manitoba",
            "country": "Canada",
            "status": "existing",
            "type": "wooden",
            "companies": "UGG",
            "lat": 49.5083,
            "lon": -98.00169,
            "url": "https://www.grainelevators.ca/manitoba/carman/",
            "id": "manitoba-carman"
        },
        {
            "name": "Cartwright",
            "province": "Manitoba",
            "country": "Canada",
            "status": "existing",
            "type": "wooden",
            "companies": "Manitoba Pool",
            "lat": 49.09543,
            "lon": -99.34018,
            "url": "https://www.grainelevators.ca/manitoba/cartwright/",
            "id": "manitoba-cartwright"
        },
        {
            "name": "Clandeboye",
            "province": "Manitoba",
            "country": "Canada",
            "status": "lost",
            "type": "wooden",
            "companies": "Manitoba Pool",
            "lat": 50.24370977631591,
            "lon": -96.97053599924315,
            "url": "https://www.grainelevators.ca/manitoba/clandeboye/",
            "id": "manitoba-clandeboye"
        },
        {
            "name": "Churchill",
            "province": "Manitoba",
            "country": "Canada",
            "status": "existing",
            "type": "concrete",
            "companies": null,
            "lat": 58.76931,
            "lon": -94.17368,
            "url": "https://www.grainelevators.ca/manitoba/churchill/",
            "id": "manitoba-churchill"
        },
        {
            "name": "Clearwater",
            "province": "Manitoba",
            "country": "Canada",
            "status": "existing",
            "type": "wooden",
            "companies": "Manitoba Pool",
            "lat": 49.13424,
            "lon": -99.03687,
            "url": "https://www.grainelevators.ca/manitoba/clearwater/",
            "id": "manitoba-clearwater"
        },
        {
            "name": "Coulter",
            "province": "Manitoba",
            "country": "Canada",
            "status": "existing",
            "type": "wooden",
            "companies": "Manitoba Pool",
            "lat": 49.08944,
            "lon": -100.98467,
            "url": "https://www.grainelevators.ca/manitoba/coulter/",
            "id": "manitoba-coulter"
        },
        {
            "name": "Crandall",
            "province": "Manitoba",
            "country": "Canada",
            "status": "lost",
            "type": "wooden",
            "companies": "Manitoba Pool",
            "lat": 50.15001,
            "lon": -100.7853,
            "url": "https://www.grainelevators.ca/manitoba/crandall/",
            "id": "manitoba-crandall"
        },
        {
            "name": "Cromer",
            "province": "Manitoba",
            "country": "Canada",
            "status": "existing",
            "type": "wooden",
            "companies": "Manitoba Pool, UGG",
            "lat": 49.73115,
            "lon": -101.23688,
            "url": "https://www.grainelevators.ca/manitoba/cromer/",
            "id": "manitoba-cromer"
        },
        {
            "name": "Crystal City",
            "province": "Manitoba",
            "country": "Canada",
            "status": "existing",
            "type": "wooden",
            "companies": "Manitoba Pool, Paterson",
            "lat": 49.14645,
            "lon": -98.95098,
            "url": "https://www.grainelevators.ca/manitoba/crystal-city/",
            "id": "manitoba-crystal-city"
        },
        {
            "name": "Culross",
            "province": "Manitoba",
            "country": "Canada",
            "status": "existing",
            "type": "wooden",
            "companies": "UGG, Paterson",
            "lat": 49.71495,
            "lon": -97.90911,
            "url": "https://www.grainelevators.ca/manitoba/culross/",
            "id": "manitoba-culross"
        },
        {
            "name": "Cypress River",
            "province": "Manitoba",
            "country": "Canada",
            "status": "existing",
            "type": "wooden",
            "companies": "Manitoba Pool, UGG, Paterson",
            "lat": 49.55428,
            "lon": -99.090217,
            "url": "https://www.grainelevators.ca/manitoba/cypress-river/",
            "id": "manitoba-cypress-river"
        },
        {
            "name": "Dacotah",
            "province": "Manitoba",
            "country": "Canada",
            "status": "lost",
            "type": "wooden",
            "companies": "Paterson",
            "lat": 49.87531,
            "lon": -97.63929,
            "url": "https://www.grainelevators.ca/manitoba/dacotah/",
            "id": "manitoba-dacotah"
        },
        {
            "name": "Dalny",
            "province": "Manitoba",
            "country": "Canada",
            "status": "existing",
            "type": "wooden",
            "companies": null,
            "lat": 49.09912,
            "lon": -100.90252,
            "url": "https://www.grainelevators.ca/manitoba/dalny/",
            "id": "manitoba-dalny"
        },
        {
            "name": "Darlingford",
            "province": "Manitoba",
            "country": "Canada",
            "status": "lost",
            "type": "wooden",
            "companies": "Manitoba Pool",
            "lat": 49.2039,
            "lon": -98.37888,
            "url": "https://www.grainelevators.ca/manitoba/darlingford/",
            "id": "manitoba-darlingford"
        },
        {
            "name": "Dauphin",
            "province": "Manitoba",
            "country": "Canada",
            "status": "existing",
            "type": "concrete",
            "companies": "Cargill, Richardson Pioneer, Richardson, Manitoba Pool, UGG, Agricore",
            "lat": 51.15351,
            "lon": -100.04425,
            "url": "https://www.grainelevators.ca/manitoba/dauphin/",
            "id": "manitoba-dauphin"
        },
        {
            "name": "Deloraine",
            "province": "Manitoba",
            "country": "Canada",
            "status": "existing",
            "type": "wooden",
            "companies": "Manitoba Pool, UGG",
            "lat": 49.19263,
            "lon": -100.49452,
            "url": "https://www.grainelevators.ca/manitoba/deloraine/",
            "id": "manitoba-deloraine"
        },
        {
            "name": "Domain",
            "province": "Manitoba",
            "country": "Canada",
            "status": "existing",
            "type": "wooden",
            "companies": "Manitoba Pool",
            "lat": 49.6,
            "lon": -97.31667,
            "url": "https://www.grainelevators.ca/manitoba/domain/",
            "id": "manitoba-domain"
        },
        {
            "name": "Douglas",
            "province": "Manitoba",
            "country": "Canada",
            "status": "lost",
            "type": "wooden",
            "companies": "Manitoba Pool",
            "lat": 49.89333,
            "lon": -99.71144,
            "url": "https://www.grainelevators.ca/manitoba/douglas/",
            "id": "manitoba-douglas"
        },
        {
            "name": "Dufresne",
            "province": "Manitoba",
            "country": "Canada",
            "status": "existing",
            "type": "wooden",
            "companies": "Manitoba Pool",
            "lat": 49.72658,
            "lon": -96.72434,
            "url": "https://www.grainelevators.ca/manitoba/dufresne/",
            "id": "manitoba-dufresne"
        },
        {
            "name": "Dugald",
            "province": "Manitoba",
            "country": "Canada",
            "status": "existing",
            "type": "wooden",
            "companies": "Parrish & Heimbecker, Manitoba Pool",
            "lat": 49.88699,
            "lon": -96.83766,
            "url": "https://www.grainelevators.ca/manitoba/dugald/",
            "id": "manitoba-dugald"
        },
        {
            "name": "Dunrea",
            "province": "Manitoba",
            "country": "Canada",
            "status": "lost",
            "type": "wooden",
            "companies": "Manitoba Pool",
            "lat": 49.40582,
            "lon": -99.73164,
            "url": "https://www.grainelevators.ca/manitoba/dunrea/",
            "id": "manitoba-dunrea"
        },
        {
            "name": "Dutton",
            "province": "Manitoba",
            "country": "Canada",
            "status": "existing",
            "type": "mixed",
            "companies": "Parrish & Heimbecker, Agricore",
            "lat": 51.14857,
            "lon": -100.589562,
            "url": "https://www.grainelevators.ca/manitoba/dutton/",
            "id": "manitoba-dutton"
        },
        {
            "name": "Edwin",
            "province": "Manitoba",
            "country": "Canada",
            "status": "lost",
            "type": "wooden",
            "companies": null,
            "lat": 49.88942,
            "lon": -98.51575,
            "url": "https://www.grainelevators.ca/manitoba/edwin/",
            "id": "manitoba-edwin"
        },
        {
            "name": "Elgin",
            "province": "Manitoba",
            "country": "Canada",
            "status": "existing",
            "type": "wooden",
            "companies": "Manitoba Pool, UGG",
            "lat": 49.44569,
            "lon": -100.27174,
            "url": "https://www.grainelevators.ca/manitoba/elgin/",
            "id": "manitoba-elgin"
        },
        {
            "name": "Elie",
            "province": "Manitoba",
            "country": "Canada",
            "status": "existing",
            "type": "wooden",
            "companies": "Manitoba Pool, United Grain Growers, UGG, Agricore",
            "lat": 49.90116,
            "lon": -97.75788,
            "url": "https://www.grainelevators.ca/manitoba/elie/",
            "id": "manitoba-elie"
        },
        {
            "name": "Elkhorn",
            "province": "Manitoba",
            "country": "Canada",
            "status": "existing",
            "type": "wooden",
            "companies": "Manitoba Pool",
            "lat": 49.97534,
            "lon": -101.23659,
            "url": "https://www.grainelevators.ca/manitoba/elkhorn/",
            "id": "manitoba-elkhorn"
        },
        {
            "name": "Elm Creek",
            "province": "Manitoba",
            "country": "Canada",
            "status": "existing",
            "type": "mixed",
            "companies": "Cargill, Manitoba Pool, Paterson",
            "lat": 49.67459,
            "lon": -97.99865,
            "url": "https://www.grainelevators.ca/manitoba/elm-creek/",
            "id": "manitoba-elm-creek"
        },
        {
            "name": "Elphinstone",
            "province": "Manitoba",
            "country": "Canada",
            "status": "lost",
            "type": "wooden",
            "companies": "Manitoba Pool",
            "lat": 50.53111,
            "lon": -100.32274,
            "url": "https://www.grainelevators.ca/manitoba/elphinstone/",
            "id": "manitoba-elphinstone"
        },
        {
            "name": "Elva",
            "province": "Manitoba",
            "country": "Canada",
            "status": "existing",
            "type": "wooden",
            "companies": "Cargill, Manitoba Pool, United Grain Growers, UGG, Agricore",
            "lat": 49.21638,
            "lon": -101.11655,
            "url": "https://www.grainelevators.ca/manitoba/elva/",
            "id": "manitoba-elva"
        },
        {
            "name": "Emerson",
            "province": "Manitoba",
            "country": "Canada",
            "status": "lost",
            "type": "wooden",
            "companies": null,
            "lat": 49.00688,
            "lon": -97.21537,
            "url": "https://www.grainelevators.ca/manitoba/emerson/",
            "id": "manitoba-emerson"
        },
        {
            "name": "Erickson",
            "province": "Manitoba",
            "country": "Canada",
            "status": "lost",
            "type": "wooden",
            "companies": "Manitoba Pool",
            "lat": 50.49812,
            "lon": -99.91223,
            "url": "https://www.grainelevators.ca/manitoba/erickson/",
            "id": "manitoba-erickson"
        },
        {
            "name": "Ethelbert",
            "province": "Manitoba",
            "country": "Canada",
            "status": "existing",
            "type": "wooden",
            "companies": "Manitoba Pool",
            "lat": 51.52589,
            "lon": -100.39573,
            "url": "https://www.grainelevators.ca/manitoba/ethelbert/",
            "id": "manitoba-ethelbert"
        },
        {
            "name": "Isabella",
            "province": "Manitoba",
            "country": "Canada",
            "status": "existing",
            "type": "wooden",
            "companies": "Manitoba Pool",
            "lat": 50.267612643975,
            "lon": -100.87376183080609,
            "url": "https://www.grainelevators.ca/manitoba/isabella/",
            "id": "manitoba-isabella"
        },
        {
            "name": "Fairfax",
            "province": "Manitoba",
            "country": "Canada",
            "status": "lost",
            "type": "wooden",
            "companies": "Paterson",
            "lat": 49.43501,
            "lon": -100.12918,
            "url": "https://www.grainelevators.ca/manitoba/fairfax/",
            "id": "manitoba-fairfax"
        },
        {
            "name": "Fannystelle",
            "province": "Manitoba",
            "country": "Canada",
            "status": "existing",
            "type": "mixed",
            "companies": "Viterra, Manitoba Pool, United Grain Growers, UGG, Bunge, Agricore",
            "lat": 49.74452,
            "lon": -97.77763,
            "url": "https://www.grainelevators.ca/manitoba/fannystelle/",
            "id": "manitoba-fannystelle"
        },
        {
            "name": "Fork River",
            "province": "Manitoba",
            "country": "Canada",
            "status": "existing",
            "type": "wooden",
            "companies": "Manitoba Pool",
            "lat": 51.5131,
            "lon": -100.02191,
            "url": "https://www.grainelevators.ca/manitoba/fork-river/",
            "id": "manitoba-fork-river"
        },
        {
            "name": "Forrest",
            "province": "Manitoba",
            "country": "Canada",
            "status": "lost",
            "type": "wooden",
            "companies": "Manitoba Pool, Paterson",
            "lat": 49.96618,
            "lon": -99.93537,
            "url": "https://www.grainelevators.ca/manitoba/forrest/",
            "id": "manitoba-forrest"
        },
        {
            "name": "Foxwarren",
            "province": "Manitoba",
            "country": "Canada",
            "status": "lost",
            "type": "wooden",
            "companies": "Manitoba Pool, United Grain Growers, UGG",
            "lat": 50.5172,
            "lon": -101.1523,
            "url": "https://www.grainelevators.ca/manitoba/foxwarren/",
            "id": "manitoba-foxwarren"
        },
        {
            "name": "Franklin",
            "province": "Manitoba",
            "country": "Canada",
            "status": "unknown",
            "type": "wooden",
            "companies": null,
            "lat": 50.24544,
            "lon": -99.66615,
            "url": "https://www.grainelevators.ca/manitoba/franklin/",
            "id": "manitoba-franklin"
        },
        {
            "name": "Fredensthal",
            "province": "Manitoba",
            "country": "Canada",
            "status": "existing",
            "type": "wooden",
            "companies": "Viterra, Agricore",
            "lat": 49.04486,
            "lon": -97.07737,
            "url": "https://www.grainelevators.ca/manitoba/fredensthal/",
            "id": "manitoba-fredensthal"
        },
        {
            "name": "Gilbert Plains",
            "province": "Manitoba",
            "country": "Canada",
            "status": "existing",
            "type": "wooden",
            "companies": "Manitoba Pool, UGG",
            "lat": 51.14907,
            "lon": -100.48864,
            "url": "https://www.grainelevators.ca/manitoba/gilbert-plains/",
            "id": "manitoba-gilbert-plains"
        },
        {
            "name": "Gimli",
            "province": "Manitoba",
            "country": "Canada",
            "status": "lost",
            "type": "wooden",
            "companies": "Manitoba Pool",
            "lat": 50.63362,
            "lon": -96.99066,
            "url": "https://www.grainelevators.ca/manitoba/gimli/",
            "id": "manitoba-gimli"
        },
        {
            "name": "Glenboro",
            "province": "Manitoba",
            "country": "Canada",
            "status": "lost",
            "type": "wooden",
            "companies": "Manitoba Pool, UGG",
            "lat": 49.55582,
            "lon": -99.29191,
            "url": "https://www.grainelevators.ca/manitoba/glenboro/",
            "id": "manitoba-glenboro"
        },
        {
            "name": "Hartney",
            "province": "Manitoba",
            "country": "Canada",
            "status": "existing",
            "type": "wooden",
            "companies": "Manitoba Pool",
            "lat": 49.479616,
            "lon": -100.524308,
            "url": "https://www.grainelevators.ca/manitoba/hartney/",
            "id": "manitoba-hartney"
        },
        {
            "name": "Holland",
            "province": "Manitoba",
            "country": "Canada",
            "status": "existing",
            "type": "wooden",
            "companies": "Agricore",
            "lat": 49.599592,
            "lon": -98.877864,
            "url": "https://www.grainelevators.ca/manitoba/holland/",
            "id": "manitoba-holland"
        },
        {
            "name": "Homewood",
            "province": "Manitoba",
            "country": "Canada",
            "status": "lost",
            "type": "wooden",
            "companies": "UGG",
            "lat": 49.50861,
            "lon": -97.86493,
            "url": "https://www.grainelevators.ca/manitoba/homewood/",
            "id": "manitoba-homewood"
        },
        {
            "name": "Killarney",
            "province": "Manitoba",
            "country": "Canada",
            "status": "existing",
            "type": "steel",
            "companies": "Manitoba Pool, UGG",
            "lat": 49.181468,
            "lon": -99.645737,
            "url": "https://www.grainelevators.ca/manitoba/killarney/",
            "id": "manitoba-killarney"
        },
        {
            "name": "Letellier",
            "province": "Manitoba",
            "country": "Canada",
            "status": "lost",
            "type": "wooden",
            "companies": "Manitoba Pool, Paterson",
            "lat": 49.13579,
            "lon": -97.30378,
            "url": "https://www.grainelevators.ca/manitoba/letellier/",
            "id": "manitoba-letellier"
        },
        {
            "name": "Macgregor",
            "province": "Manitoba",
            "country": "Canada",
            "status": "lost",
            "type": "wooden",
            "companies": "Manitoba Pool, Paterson",
            "lat": 49.96613,
            "lon": -98.77937,
            "url": "https://www.grainelevators.ca/manitoba/macgregor/",
            "id": "manitoba-macgregor"
        },
        {
            "name": "Manitou",
            "province": "Manitoba",
            "country": "Canada",
            "status": "existing",
            "type": "wooden",
            "companies": "Manitoba Pool",
            "lat": 49.243313,
            "lon": -98.537326,
            "url": "https://www.grainelevators.ca/manitoba/manitou/",
            "id": "manitoba-manitou"
        },
        {
            "name": "Marquette",
            "province": "Manitoba",
            "country": "Canada",
            "status": "lost",
            "type": "wooden",
            "companies": "Manitoba Pool",
            "lat": 50.06441,
            "lon": -97.73349,
            "url": "https://www.grainelevators.ca/manitoba/marquette/",
            "id": "manitoba-marquette"
        },
        {
            "name": "Medora",
            "province": "Manitoba",
            "country": "Canada",
            "status": "existing",
            "type": "wooden",
            "companies": "Manitoba Pool",
            "lat": 49.25450969318348,
            "lon": -100.69558118934096,
            "url": "https://www.grainelevators.ca/manitoba/medora/",
            "id": "manitoba-medora"
        },
        {
            "name": "Minto",
            "province": "Manitoba",
            "country": "Canada",
            "status": "lost",
            "type": "wooden",
            "companies": "Manitoba Pool",
            "lat": 49.40752,
            "lon": -100.02197,
            "url": "https://www.grainelevators.ca/manitoba/minto/",
            "id": "manitoba-minto"
        },
        {
            "name": "Minnedosa",
            "province": "Manitoba",
            "country": "Canada",
            "status": "existing",
            "type": "steel",
            "companies": "Manitoba Pool, UGG, Paterson",
            "lat": 50.256278,
            "lon": -99.868824,
            "url": "https://www.grainelevators.ca/manitoba/minnedosa/",
            "id": "manitoba-minnedosa"
        },
        {
            "name": "Moline",
            "province": "Manitoba",
            "country": "Canada",
            "status": "lost",
            "type": "wooden",
            "companies": "Manitoba Pool",
            "lat": 50.18061,
            "lon": -100.18697,
            "url": "https://www.grainelevators.ca/manitoba/moline/",
            "id": "manitoba-moline"
        },
        {
            "name": "Moosehorn",
            "province": "Manitoba",
            "country": "Canada",
            "status": "lost",
            "type": "wooden",
            "companies": "Manitoba Pool",
            "lat": 51.29141,
            "lon": -98.42353,
            "url": "https://www.grainelevators.ca/manitoba/moosehorn/",
            "id": "manitoba-moosehorn"
        },
        {
            "name": "Morden",
            "province": "Manitoba",
            "country": "Canada",
            "status": "existing",
            "type": "wooden",
            "companies": "Parrish & Heimbecker, Manitoba Pool, UGG, Paterson",
            "lat": 49.188,
            "lon": -98.099889,
            "url": "https://www.grainelevators.ca/manitoba/morden/",
            "id": "manitoba-morden"
        },
        {
            "name": "Neepawa",
            "province": "Manitoba",
            "country": "Canada",
            "status": "lost",
            "type": "wooden",
            "companies": "Manitoba Pool, UGG, Paterson",
            "lat": 50.22892,
            "lon": -99.46642,
            "url": "https://www.grainelevators.ca/manitoba/neepawa/",
            "id": "manitoba-neepawa"
        },
        {
            "name": "Niverville",
            "province": "Manitoba",
            "country": "Canada",
            "status": "lost",
            "type": "wooden",
            "companies": "Parrish & Heimbecker",
            "lat": 49.60559,
            "lon": -97.04234,
            "url": "https://www.grainelevators.ca/manitoba/niverville/",
            "id": "manitoba-niverville"
        },
        {
            "name": "Oakburn",
            "province": "Manitoba",
            "country": "Canada",
            "status": "existing",
            "type": "wooden",
            "companies": "Manitoba Pool",
            "lat": 50.566384,
            "lon": -100.58138,
            "url": "https://www.grainelevators.ca/manitoba/oakburn/",
            "id": "manitoba-oakburn"
        },
        {
            "name": "Oakville",
            "province": "Manitoba",
            "country": "Canada",
            "status": "existing",
            "type": "wooden",
            "companies": "Manitoba Pool",
            "lat": 49.927917,
            "lon": -98.000402,
            "url": "https://www.grainelevators.ca/manitoba/oakville/",
            "id": "manitoba-oakville"
        },
        {
            "name": "Pilot Mound",
            "province": "Manitoba",
            "country": "Canada",
            "status": "lost",
            "type": "wooden",
            "companies": "Manitoba Pool",
            "lat": 49.20141,
            "lon": -98.8947,
            "url": "https://www.grainelevators.ca/manitoba/pilot-mound/",
            "id": "manitoba-pilot-mound"
        },
        {
            "name": "Pipestone",
            "province": "Manitoba",
            "country": "Canada",
            "status": "lost",
            "type": "wooden",
            "companies": "Manitoba Pool",
            "lat": 49.5578,
            "lon": -100.94651,
            "url": "https://www.grainelevators.ca/manitoba/pipestone/",
            "id": "manitoba-pipestone"
        },
        {
            "name": "Plum Coulee",
            "province": "Manitoba",
            "country": "Canada",
            "status": "existing",
            "type": "wooden",
            "companies": "Parrish & Heimbecker",
            "lat": 49.190209,
            "lon": -97.761335,
            "url": "https://www.grainelevators.ca/manitoba/plum-coulee/",
            "id": "manitoba-plum-coulee"
        },
        {
            "name": "Portage la Prairie",
            "province": "Manitoba",
            "country": "Canada",
            "status": "existing",
            "type": "mixed",
            "companies": "Cargill, Manitoba Pool, UGG, Agricore",
            "lat": 49.966497,
            "lon": -98.353614,
            "url": "https://www.grainelevators.ca/manitoba/portage-la-prairie/",
            "id": "manitoba-portage-la-prairie"
        },
        {
            "name": "Riverton",
            "province": "Manitoba",
            "country": "Canada",
            "status": "lost",
            "type": "wooden",
            "companies": "Manitoba Pool",
            "lat": 50.99831,
            "lon": -96.99676,
            "url": "https://www.grainelevators.ca/manitoba/riverton/",
            "id": "manitoba-riverton"
        },
        {
            "name": "Roblin",
            "province": "Manitoba",
            "country": "Canada",
            "status": "existing",
            "type": "concrete",
            "companies": "Manitoba Pool, UGG",
            "lat": 51.23472,
            "lon": -101.34056,
            "url": "https://www.grainelevators.ca/manitoba/roblin/",
            "id": "manitoba-roblin"
        },
        {
            "name": "Roland",
            "province": "Manitoba",
            "country": "Canada",
            "status": "lost",
            "type": "wooden",
            "companies": "Manitoba Pool",
            "lat": 49.3664,
            "lon": -97.94075,
            "url": "https://www.grainelevators.ca/manitoba/roland/",
            "id": "manitoba-roland"
        },
        {
            "name": "Rosser",
            "province": "Manitoba",
            "country": "Canada",
            "status": "existing",
            "type": "concrete",
            "companies": "Manitoba Pool",
            "lat": 49.970545,
            "lon": -97.350121,
            "url": "https://www.grainelevators.ca/manitoba/rosser/",
            "id": "manitoba-rosser"
        },
        {
            "name": "Russell",
            "province": "Manitoba",
            "country": "Canada",
            "status": "existing",
            "type": "wooden",
            "companies": "Manitoba Pool, UGG",
            "lat": 50.778681,
            "lon": -101.27809,
            "url": "https://www.grainelevators.ca/manitoba/russell/",
            "id": "manitoba-russell"
        },
        {
            "name": "St. Claude",
            "province": "Manitoba",
            "country": "Canada",
            "status": "lost",
            "type": "wooden",
            "companies": "Paterson",
            "lat": 49.65861,
            "lon": -98.34244,
            "url": "https://www.grainelevators.ca/manitoba/st-claude/",
            "id": "manitoba-st-claude"
        },
        {
            "name": "St. Jean Baptiste",
            "province": "Manitoba",
            "country": "Canada",
            "status": "lost",
            "type": "wooden",
            "companies": "Paterson",
            "lat": 49.26559,
            "lon": -97.34037,
            "url": "https://www.grainelevators.ca/manitoba/st-jean-baptiste/",
            "id": "manitoba-st-jean-baptiste"
        },
        {
            "name": "Sandy Lake",
            "province": "Manitoba",
            "country": "Canada",
            "status": "existing",
            "type": "wooden",
            "companies": "Manitoba Pool",
            "lat": 50.526913,
            "lon": -100.174624,
            "url": "https://www.grainelevators.ca/manitoba/sandy-lake/",
            "id": "manitoba-sandy-lake"
        },
        {
            "name": "Shoal Lake",
            "province": "Manitoba",
            "country": "Canada",
            "status": "existing",
            "type": "mixed",
            "companies": "Manitoba Pool, UGG",
            "lat": 50.438904,
            "lon": -100.588012,
            "url": "https://www.grainelevators.ca/manitoba/shoal-lake/",
            "id": "manitoba-shoal-lake"
        },
        {
            "name": "Sinclair",
            "province": "Manitoba",
            "country": "Canada",
            "status": "lost",
            "type": "wooden",
            "companies": "Manitoba Pool",
            "lat": 49.5692,
            "lon": -101.28872,
            "url": "https://www.grainelevators.ca/manitoba/sinclair/",
            "id": "manitoba-sinclair"
        },
        {
            "name": "Snowflake",
            "province": "Manitoba",
            "country": "Canada",
            "status": "existing",
            "type": "wooden",
            "companies": "Manitoba Pool",
            "lat": 49.04622677967585,
            "lon": -98.66067294742756,
            "url": "https://www.grainelevators.ca/manitoba/snowflake/",
            "id": "manitoba-snowflake"
        },
        {
            "name": "Solsgirth",
            "province": "Manitoba",
            "country": "Canada",
            "status": "existing",
            "type": "wooden",
            "companies": "Manitoba Pool",
            "lat": 50.489780466969705,
            "lon": -100.91464599012888,
            "url": "https://www.grainelevators.ca/manitoba/solsgirth/",
            "id": "manitoba-solsgirth"
        },
        {
            "name": "Stonewall",
            "province": "Manitoba",
            "country": "Canada",
            "status": "lost",
            "type": "wooden",
            "companies": "Manitoba Pool, UGG",
            "lat": 50.13441,
            "lon": -97.32676,
            "url": "https://www.grainelevators.ca/manitoba/stonewall/",
            "id": "manitoba-stonewall"
        },
        {
            "name": "Teulon",
            "province": "Manitoba",
            "country": "Canada",
            "status": "existing",
            "type": "wooden",
            "companies": "Manitoba Pool",
            "lat": 50.385744,
            "lon": -97.263904,
            "url": "https://www.grainelevators.ca/manitoba/teulon/",
            "id": "manitoba-teulon"
        },
        {
            "name": "The Pas",
            "province": "Manitoba",
            "country": "Canada",
            "status": "unknown",
            "type": "steel",
            "companies": null,
            "lat": 53.825501,
            "lon": -101.241338,
            "url": "https://www.grainelevators.ca/manitoba/the-pas/",
            "id": "manitoba-the-pas"
        },
        {
            "name": "Treherne",
            "province": "Manitoba",
            "country": "Canada",
            "status": "lost",
            "type": "wooden",
            "companies": "Manitoba Pool",
            "lat": 49.62941,
            "lon": -98.69856,
            "url": "https://www.grainelevators.ca/manitoba/treherne/",
            "id": "manitoba-treherne"
        },
        {
            "name": "Virden",
            "province": "Manitoba",
            "country": "Canada",
            "status": "existing",
            "type": "wooden",
            "companies": "Manitoba Pool, UGG",
            "lat": 49.89598,
            "lon": -101.023709,
            "url": "https://www.grainelevators.ca/manitoba/virden/",
            "id": "manitoba-virden"
        },
        {
            "name": "Vista",
            "province": "Manitoba",
            "country": "Canada",
            "status": "lost",
            "type": "wooden",
            "companies": "Manitoba Pool",
            "lat": 50.6203,
            "lon": -100.71867,
            "url": "https://www.grainelevators.ca/manitoba/vista/",
            "id": "manitoba-vista"
        },
        {
            "name": "Warren",
            "province": "Manitoba",
            "country": "Canada",
            "status": "existing",
            "type": "wooden",
            "companies": "Manitoba Pool",
            "lat": 50.133532,
            "lon": -97.549168,
            "url": "https://www.grainelevators.ca/manitoba/warren/",
            "id": "manitoba-warren"
        },
        {
            "name": "Wellwood",
            "province": "Manitoba",
            "country": "Canada",
            "status": "lost",
            "type": "wooden",
            "companies": "Manitoba Pool",
            "lat": 50.03973,
            "lon": -99.33301,
            "url": "https://www.grainelevators.ca/manitoba/wellwood/",
            "id": "manitoba-wellwood"
        },
        {
            "name": "Winkler",
            "province": "Manitoba",
            "country": "Canada",
            "status": "existing",
            "type": "mixed",
            "companies": "Viterra, Cargill",
            "lat": 49.18709,
            "lon": -97.93762,
            "url": "https://www.grainelevators.ca/manitoba/winkler/",
            "id": "manitoba-winkler"
        },
        {
            "name": "Winnipeg",
            "province": "Manitoba",
            "country": "Canada",
            "status": "existing",
            "type": "mixed",
            "companies": "Viterra, Cargill, Manitoba Pool, UGG, Federal Grain",
            "lat": 49.89554,
            "lon": -97.13846,
            "url": "https://www.grainelevators.ca/manitoba/winnipeg/",
            "id": "manitoba-winnipeg"
        },
        {
            "name": "Winnipegosis",
            "province": "Manitoba",
            "country": "Canada",
            "status": "existing",
            "type": "wooden",
            "companies": null,
            "lat": 51.64794,
            "lon": -99.92729,
            "url": "https://www.grainelevators.ca/manitoba/winnipegosis/",
            "id": "manitoba-winnipegosis"
        },
        {
            "name": "Benard",
            "province": "Manitoba",
            "country": "Canada",
            "status": "existing",
            "type": "wooden",
            "companies": "Manitoba Pool",
            "lat": 49.91989,
            "lon": -97.84944,
            "url": "https://www.grainelevators.ca/manitoba/benard/",
            "id": "manitoba-benard"
        },
        {
            "name": "Bloom",
            "province": "Manitoba",
            "country": "Canada",
            "status": "existing",
            "type": "mixed",
            "companies": "G3",
            "lat": 49.976819,
            "lon": -98.513797,
            "url": "https://www.grainelevators.ca/manitoba/bloom/",
            "id": "manitoba-bloom"
        },
        {
            "name": "Bryd",
            "province": "Manitoba",
            "country": "Canada",
            "status": "lost",
            "type": "wooden",
            "companies": "Paterson",
            "lat": 50.4561,
            "lon": -100.67117,
            "url": "https://www.grainelevators.ca/manitoba/bryd/",
            "id": "manitoba-bryd"
        },
        {
            "name": "Cracknell",
            "province": "Manitoba",
            "country": "Canada",
            "status": "lost",
            "type": "wooden",
            "companies": "Manitoba Pool, UGG, Paterson",
            "lat": 50.86249,
            "lon": -101.2415,
            "url": "https://www.grainelevators.ca/manitoba/cracknell/",
            "id": "manitoba-cracknell"
        },
        {
            "name": "Cranmer",
            "province": "Manitoba",
            "country": "Canada",
            "status": "lost",
            "type": "wooden",
            "companies": "UGG",
            "lat": 49.09533,
            "lon": -100.69116,
            "url": "https://www.grainelevators.ca/manitoba/cranmer/",
            "id": "manitoba-cranmer"
        },
        {
            "name": "Dundonald",
            "province": "Manitoba",
            "country": "Canada",
            "status": "existing",
            "type": "concrete",
            "companies": null,
            "lat": 50.08316607381247,
            "lon": -98.50641589070037,
            "url": "https://www.grainelevators.ca/manitoba/dundonald/",
            "id": "manitoba-dundonald"
        },
        {
            "name": "Ebor",
            "province": "Manitoba",
            "country": "Canada",
            "status": "lost",
            "type": "wooden",
            "companies": null,
            "lat": 49.7411,
            "lon": -101.33284,
            "url": "https://www.grainelevators.ca/manitoba/ebor/",
            "id": "manitoba-ebor"
        },
        {
            "name": "Gladstone",
            "province": "Manitoba",
            "country": "Canada",
            "status": "existing",
            "type": "wooden",
            "companies": "Manitoba Pool, UGG, Parrish & Heimbecker",
            "lat": 50.22549,
            "lon": -98.95107,
            "url": "https://www.grainelevators.ca/manitoba/gladstone/",
            "id": "manitoba-gladstone"
        },
        {
            "name": "Glass",
            "province": "Manitoba",
            "country": "Canada",
            "status": "lost",
            "type": "wooden",
            "companies": null,
            "lat": 49.88529,
            "lon": -96.72751,
            "url": "https://www.grainelevators.ca/manitoba/glass/",
            "id": "manitoba-glass"
        },
        {
            "name": "Glenlea",
            "province": "Manitoba",
            "country": "Canada",
            "status": "existing",
            "type": "concrete",
            "companies": "G3",
            "lat": 49.63534,
            "lon": -97.13592,
            "url": "https://www.grainelevators.ca/manitoba/glenlea/",
            "id": "manitoba-glenlea"
        },
        {
            "name": "Glossop",
            "province": "Manitoba",
            "country": "Canada",
            "status": "existing",
            "type": "mixed",
            "companies": "Manitoba Pool, Parrish & Heimbecker, Richardson, Agricore",
            "lat": 50.05,
            "lon": -100.85,
            "url": "https://www.grainelevators.ca/manitoba/glossop/",
            "id": "manitoba-glossop"
        },
        {
            "name": "Goodlands",
            "province": "Manitoba",
            "country": "Canada",
            "status": "existing",
            "type": "wooden",
            "companies": "Manitoba Pool",
            "lat": 49.09329,
            "lon": -100.60223,
            "url": "https://www.grainelevators.ca/manitoba/goodlands/",
            "id": "manitoba-goodlands"
        },
        {
            "name": "Grand Plains",
            "province": "Manitoba",
            "country": "Canada",
            "status": "existing",
            "type": "concrete",
            "companies": "Parrish & Heimbecker",
            "lat": 51.149,
            "lon": -100.37,
            "url": "https://www.grainelevators.ca/manitoba/grand-plains/",
            "id": "manitoba-grand-plains"
        },
        {
            "name": "Grandview",
            "province": "Manitoba",
            "country": "Canada",
            "status": "lost",
            "type": "wooden",
            "companies": "Manitoba Pool, UGG",
            "lat": 51.1742,
            "lon": -100.69867,
            "url": "https://www.grainelevators.ca/manitoba/grandview/",
            "id": "manitoba-grandview"
        },
        {
            "name": "Graysville",
            "province": "Manitoba",
            "country": "Canada",
            "status": "lost",
            "type": "wooden",
            "companies": "Manitoba Pool, UGG",
            "lat": 49.5092,
            "lon": -98.15825,
            "url": "https://www.grainelevators.ca/manitoba/graysville/",
            "id": "manitoba-graysville"
        },
        {
            "name": "Gregg",
            "province": "Manitoba",
            "country": "Canada",
            "status": "existing",
            "type": "wooden",
            "companies": "Manitoba Pool",
            "lat": 49.97911,
            "lon": -99.30043,
            "url": "https://www.grainelevators.ca/manitoba/gregg/",
            "id": "manitoba-gregg"
        },
        {
            "name": "Gretna",
            "province": "Manitoba",
            "country": "Canada",
            "status": "existing",
            "type": "wooden",
            "companies": "Manitoba Pool",
            "lat": 49.00788,
            "lon": -97.5616,
            "url": "https://www.grainelevators.ca/manitoba/gretna/",
            "id": "manitoba-gretna"
        },
        {
            "name": "Griswold",
            "province": "Manitoba",
            "country": "Canada",
            "status": "lost",
            "type": "wooden",
            "companies": "UGG",
            "lat": 49.775,
            "lon": -100.47169,
            "url": "https://www.grainelevators.ca/manitoba/griswold/",
            "id": "manitoba-griswold"
        },
        {
            "name": "Hargrave",
            "province": "Manitoba",
            "country": "Canada",
            "status": "lost",
            "type": "wooden",
            "companies": "UGG",
            "lat": 49.9172,
            "lon": -101.07283,
            "url": "https://www.grainelevators.ca/manitoba/hargrave/",
            "id": "manitoba-hargrave"
        },
        {
            "name": "Harmsworth",
            "province": "Manitoba",
            "country": "Canada",
            "status": "existing",
            "type": "wooden",
            "companies": "Manitoba Pool",
            "lat": 49.97088,
            "lon": -100.98644,
            "url": "https://www.grainelevators.ca/manitoba/harmsworth/",
            "id": "manitoba-harmsworth"
        },
        {
            "name": "Harte",
            "province": "Manitoba",
            "country": "Canada",
            "status": "existing",
            "type": "wooden",
            "companies": "Manitoba Pool",
            "lat": 49.98505,
            "lon": -99.46746,
            "url": "https://www.grainelevators.ca/manitoba/harte/",
            "id": "manitoba-harte"
        },
        {
            "name": "Hathaway",
            "province": "Manitoba",
            "country": "Canada",
            "status": "lost",
            "type": "wooden",
            "companies": "Manitoba Pool",
            "lat": 49.34071301939314,
            "lon": -100.44244221616387,
            "url": "https://www.grainelevators.ca/manitoba/hathaway/",
            "id": "manitoba-hathaway"
        },
        {
            "name": "Headingley",
            "province": "Manitoba",
            "country": "Canada",
            "status": "lost",
            "type": "wooden",
            "companies": null,
            "lat": 49.8753,
            "lon": -97.40896,
            "url": "https://www.grainelevators.ca/manitoba/headingley/",
            "id": "manitoba-headingley"
        },
        {
            "name": "Helston",
            "province": "Manitoba",
            "country": "Canada",
            "status": "existing",
            "type": "wooden",
            "companies": "Manitoba Pool",
            "lat": 50.13333,
            "lon": -99.1,
            "url": "https://www.grainelevators.ca/manitoba/helston/",
            "id": "manitoba-helston"
        },
        {
            "name": "Holmfield",
            "province": "Manitoba",
            "country": "Canada",
            "status": "existing",
            "type": "wooden",
            "companies": null,
            "lat": 49.13495,
            "lon": -99.48647,
            "url": "https://www.grainelevators.ca/manitoba/holmfield/",
            "id": "manitoba-holmfield"
        },
        {
            "name": "Inglis",
            "province": "Manitoba",
            "country": "Canada",
            "status": "existing",
            "type": "wooden",
            "companies": "UGG, Paterson",
            "lat": 50.94769,
            "lon": -101.24999,
            "url": "https://www.grainelevators.ca/manitoba/inglis/",
            "id": "manitoba-inglis"
        },
        {
            "name": "Ipswitch",
            "province": "Manitoba",
            "country": "Canada",
            "status": "lost",
            "type": "wooden",
            "companies": "Manitoba Pool, Paterson",
            "lat": 50.41831,
            "lon": -100.48166,
            "url": "https://www.grainelevators.ca/manitoba/ipswitch/",
            "id": "manitoba-ipswitch"
        },
        {
            "name": "Jordan",
            "province": "Manitoba",
            "country": "Canada",
            "status": "existing",
            "type": "wooden",
            "companies": "Manitoba Pool",
            "lat": 49.37024,
            "lon": -98.00495,
            "url": "https://www.grainelevators.ca/manitoba/jordan/",
            "id": "manitoba-jordan"
        },
        {
            "name": "Justice",
            "province": "Manitoba",
            "country": "Canada",
            "status": "lost",
            "type": "wooden",
            "companies": "Manitoba Pool",
            "lat": 49.99612,
            "lon": -99.80005,
            "url": "https://www.grainelevators.ca/manitoba/justice/",
            "id": "manitoba-justice"
        },
        {
            "name": "Kaleida",
            "province": "Manitoba",
            "country": "Canada",
            "status": "existing",
            "type": "wooden",
            "companies": "Manitoba Pool",
            "lat": 49.13037,
            "lon": -98.46843,
            "url": "https://www.grainelevators.ca/manitoba/kaleida/",
            "id": "manitoba-kaleida"
        },
        {
            "name": "Kane",
            "province": "Manitoba",
            "country": "Canada",
            "status": "existing",
            "type": "wooden",
            "companies": "UGG, Paterson",
            "lat": 49.3549,
            "lon": -97.72915,
            "url": "https://www.grainelevators.ca/manitoba/kane/",
            "id": "manitoba-kane"
        },
        {
            "name": "Katrime",
            "province": "Manitoba",
            "country": "Canada",
            "status": "existing",
            "type": "wooden",
            "companies": "Manitoba Pool",
            "lat": 50.13,
            "lon": -98.8,
            "url": "https://www.grainelevators.ca/manitoba/katrime/",
            "id": "manitoba-katrime"
        },
        {
            "name": "Kelloe",
            "province": "Manitoba",
            "country": "Canada",
            "status": "lost",
            "type": "wooden",
            "companies": "Manitoba Pool",
            "lat": 50.4769,
            "lon": -100.76698,
            "url": "https://www.grainelevators.ca/manitoba/kelloe/",
            "id": "manitoba-kelloe"
        },
        {
            "name": "Kelwood",
            "province": "Manitoba",
            "country": "Canada",
            "status": "lost",
            "type": "wooden",
            "companies": "Manitoba Pool, UGG",
            "lat": 50.62472,
            "lon": -99.4625,
            "url": "https://www.grainelevators.ca/manitoba/kelwood/",
            "id": "manitoba-kelwood"
        },
        {
            "name": "Kemnay",
            "province": "Manitoba",
            "country": "Canada",
            "status": "existing",
            "type": "concrete",
            "companies": null,
            "lat": 49.84259,
            "lon": -100.13276,
            "url": "https://www.grainelevators.ca/manitoba/kemnay/",
            "id": "manitoba-kemnay"
        },
        {
            "name": "Kirkella",
            "province": "Manitoba",
            "country": "Canada",
            "status": "lost",
            "type": "wooden",
            "companies": "Manitoba Pool",
            "lat": 50.0239,
            "lon": -101.36625,
            "url": "https://www.grainelevators.ca/manitoba/kirkella/",
            "id": "manitoba-kirkella"
        },
        {
            "name": "Knox",
            "province": "Manitoba",
            "country": "Canada",
            "status": "existing",
            "type": "concrete",
            "companies": "Viterra",
            "lat": 49.99895,
            "lon": -99.9721,
            "url": "https://www.grainelevators.ca/manitoba/knox/",
            "id": "manitoba-knox"
        },
        {
            "name": "La Riviere",
            "province": "Manitoba",
            "country": "Canada",
            "status": "lost",
            "type": "wooden",
            "companies": "Manitoba Pool, Agricore",
            "lat": 49.23831,
            "lon": -98.67969,
            "url": "https://www.grainelevators.ca/manitoba/la-riviere/",
            "id": "manitoba-la-riviere"
        },
        {
            "name": "La Salle",
            "province": "Manitoba",
            "country": "Canada",
            "status": "lost",
            "type": "wooden",
            "companies": "Paterson",
            "lat": 49.6931,
            "lon": -97.26456,
            "url": "https://www.grainelevators.ca/manitoba/la-salle/",
            "id": "manitoba-la-salle"
        },
        {
            "name": "Lauder",
            "province": "Manitoba",
            "country": "Canada",
            "status": "lost",
            "type": "wooden",
            "companies": null,
            "lat": 49.3906,
            "lon": -100.67779,
            "url": "https://www.grainelevators.ca/manitoba/lauder/",
            "id": "manitoba-lauder"
        },
        {
            "name": "Lena",
            "province": "Manitoba",
            "country": "Canada",
            "status": "existing",
            "type": "wooden",
            "companies": "Manitoba Pool, Paterson",
            "lat": 49.0715,
            "lon": -99.6608,
            "url": "https://www.grainelevators.ca/manitoba/lena/",
            "id": "manitoba-lena"
        },
        {
            "name": "Lenore",
            "province": "Manitoba",
            "country": "Canada",
            "status": "existing",
            "type": "wooden",
            "companies": "Manitoba Pool",
            "lat": 49.95839,
            "lon": -100.74878,
            "url": "https://www.grainelevators.ca/manitoba/lenore/",
            "id": "manitoba-lenore"
        },
        {
            "name": "Libau",
            "province": "Manitoba",
            "country": "Canada",
            "status": "existing",
            "type": "wooden",
            "companies": "Manitoba Pool",
            "lat": 50.26913,
            "lon": -96.7202,
            "url": "https://www.grainelevators.ca/manitoba/libau/",
            "id": "manitoba-libau"
        },
        {
            "name": "Longburn",
            "province": "Manitoba",
            "country": "Canada",
            "status": "lost",
            "type": "wooden",
            "companies": "Manitoba Pool",
            "lat": 50.11502,
            "lon": -98.46514,
            "url": "https://www.grainelevators.ca/manitoba/longburn/",
            "id": "manitoba-longburn"
        },
        {
            "name": "Lowe Farm",
            "province": "Manitoba",
            "country": "Canada",
            "status": "lost",
            "type": "wooden",
            "companies": "Manitoba Pool, UGG",
            "lat": 49.3547,
            "lon": -97.5896,
            "url": "https://www.grainelevators.ca/manitoba/lowe-farm/",
            "id": "manitoba-lowe-farm"
        },
        {
            "name": "Lyleton",
            "province": "Manitoba",
            "country": "Canada",
            "status": "existing",
            "type": "wooden",
            "companies": "Manitoba Pool, Paterson",
            "lat": 49.05712,
            "lon": -101.17859,
            "url": "https://www.grainelevators.ca/manitoba/lyleton/",
            "id": "manitoba-lyleton"
        },
        {
            "name": "Makinak",
            "province": "Manitoba",
            "country": "Canada",
            "status": "existing",
            "type": "wooden",
            "companies": "Manitoba Pool",
            "lat": 50.98288,
            "lon": -99.66431,
            "url": "https://www.grainelevators.ca/manitoba/makinak/",
            "id": "manitoba-makinak"
        },
        {
            "name": "Marble Ridge Colony",
            "province": "Manitoba",
            "country": "Canada",
            "status": "existing",
            "type": "steel",
            "companies": null,
            "lat": 51.18385,
            "lon": -97.52204,
            "url": "https://www.grainelevators.ca/manitoba/marble-ridge-colony/",
            "id": "manitoba-marble-ridge-colony"
        },
        {
            "name": "Mariapolis",
            "province": "Manitoba",
            "country": "Canada",
            "status": "existing",
            "type": "wooden",
            "companies": "UGG",
            "lat": 49.36069,
            "lon": -98.98882,
            "url": "https://www.grainelevators.ca/manitoba/mariapolis/",
            "id": "manitoba-mariapolis"
        },
        {
            "name": "Mather",
            "province": "Manitoba",
            "country": "Canada",
            "status": "lost",
            "type": "wooden",
            "companies": "Manitoba Pool, UGG",
            "lat": 49.09891,
            "lon": -99.19192,
            "url": "https://www.grainelevators.ca/manitoba/mather/",
            "id": "manitoba-mather"
        },
        {
            "name": "McCauley",
            "province": "Manitoba",
            "country": "Canada",
            "status": "lost",
            "type": "wooden",
            "companies": null,
            "lat": 50.18333,
            "lon": -100.6,
            "url": "https://www.grainelevators.ca/manitoba/mccauley/",
            "id": "manitoba-mccauley"
        },
        {
            "name": "McConnell",
            "province": "Manitoba",
            "country": "Canada",
            "status": "existing",
            "type": "wooden",
            "companies": "Manitoba Pool",
            "lat": 50.266778,
            "lon": -100.527389,
            "url": "https://www.grainelevators.ca/manitoba/mcconnell/",
            "id": "manitoba-mcconnell"
        },
        {
            "name": "McCreary",
            "province": "Manitoba",
            "country": "Canada",
            "status": "existing",
            "type": "wooden",
            "companies": "UGG",
            "lat": 50.773741,
            "lon": -99.488874,
            "url": "https://www.grainelevators.ca/manitoba/mccreary/",
            "id": "manitoba-mccreary"
        },
        {
            "name": "McDonald",
            "province": "Manitoba",
            "country": "Canada",
            "status": "lost",
            "type": "wooden",
            "companies": "Manitoba Pool",
            "lat": 50.0808,
            "lon": -96.97003,
            "url": "https://www.grainelevators.ca/manitoba/mcdonald/",
            "id": "manitoba-mcdonald"
        },
        {
            "name": "McTavish",
            "province": "Manitoba",
            "country": "Canada",
            "status": "lost",
            "type": "wooden",
            "companies": "Manitoba Pool",
            "lat": 49.4589,
            "lon": -97.36957,
            "url": "https://www.grainelevators.ca/manitoba/mctavish/",
            "id": "manitoba-mctavish"
        },
        {
            "name": "Meadows",
            "province": "Manitoba",
            "country": "Canada",
            "status": "lost",
            "type": "wooden",
            "companies": "Paterson",
            "lat": 50.02941,
            "lon": -97.59648,
            "url": "https://www.grainelevators.ca/manitoba/meadows/",
            "id": "manitoba-meadows"
        },
        {
            "name": "Melita",
            "province": "Manitoba",
            "country": "Canada",
            "status": "existing",
            "type": "wooden",
            "companies": "Manitoba Pool, UGG",
            "lat": 49.26911,
            "lon": -100.99046,
            "url": "https://www.grainelevators.ca/manitoba/melita/",
            "id": "manitoba-melita"
        },
        {
            "name": "Mentmore",
            "province": "Manitoba",
            "country": "Canada",
            "status": "lost",
            "type": "wooden",
            "companies": null,
            "lat": 50.13283,
            "lon": -99.56753,
            "url": "https://www.grainelevators.ca/manitoba/mentmore/",
            "id": "manitoba-mentmore"
        },
        {
            "name": "Menzie",
            "province": "Manitoba",
            "country": "Canada",
            "status": "lost",
            "type": "wooden",
            "companies": null,
            "lat": 50.53141,
            "lon": -100.49115,
            "url": "https://www.grainelevators.ca/manitoba/menzie/",
            "id": "manitoba-menzie"
        },
        {
            "name": "Mile 10.6",
            "province": "Manitoba",
            "country": "Canada",
            "status": "lost",
            "type": "wooden",
            "companies": "Manitoba Pool",
            "lat": 49.838808821979214,
            "lon": -97.32958611521447,
            "url": "https://www.grainelevators.ca/manitoba/mile-10-6/",
            "id": "manitoba-mile-10-6"
        },
        {
            "name": "Mile 142.4",
            "province": "Manitoba",
            "country": "Canada",
            "status": "lost",
            "type": "wooden",
            "companies": "Manitoba Pool",
            "lat": 49.81991641802216,
            "lon": -96.9377701975635,
            "url": "https://www.grainelevators.ca/manitoba/mile-142-4/",
            "id": "manitoba-mile-142-4"
        },
        {
            "name": "Miniota",
            "province": "Manitoba",
            "country": "Canada",
            "status": "lost",
            "type": "wooden",
            "companies": "Manitoba Pool",
            "lat": 50.14331,
            "lon": -101.03402,
            "url": "https://www.grainelevators.ca/manitoba/miniota/",
            "id": "manitoba-miniota"
        },
        {
            "name": "Mollard",
            "province": "Manitoba",
            "country": "Canada",
            "status": "existing",
            "type": "concrete",
            "companies": "Richardson",
            "lat": 49.556306,
            "lon": -97.6325,
            "url": "https://www.grainelevators.ca/manitoba/mollard/",
            "id": "manitoba-mollard"
        },
        {
            "name": "Moore Park",
            "province": "Manitoba",
            "country": "Canada",
            "status": "lost",
            "type": "wooden",
            "companies": "Manitoba Pool",
            "lat": 50.06643,
            "lon": -99.78025,
            "url": "https://www.grainelevators.ca/manitoba/moore-park/",
            "id": "manitoba-moore-park"
        },
        {
            "name": "Morris",
            "province": "Manitoba",
            "country": "Canada",
            "status": "existing",
            "type": "concrete",
            "companies": "Manitoba Pool, Cargill, Paterson",
            "lat": 49.351012,
            "lon": -97.379729,
            "url": "https://www.grainelevators.ca/manitoba/morris/",
            "id": "manitoba-morris"
        },
        {
            "name": "Napinka",
            "province": "Manitoba",
            "country": "Canada",
            "status": "existing",
            "type": "wooden",
            "companies": "Manitoba Pool",
            "lat": 49.323,
            "lon": -100.84186,
            "url": "https://www.grainelevators.ca/manitoba/napinka/",
            "id": "manitoba-napinka"
        },
        {
            "name": "Nesbitt",
            "province": "Manitoba",
            "country": "Canada",
            "status": "existing",
            "type": "wooden",
            "companies": "UGG, Cargill",
            "lat": 49.60046,
            "lon": -99.86265,
            "url": "https://www.grainelevators.ca/manitoba/nesbitt/",
            "id": "manitoba-nesbitt"
        },
        {
            "name": "Netley",
            "province": "Manitoba",
            "country": "Canada",
            "status": "existing",
            "type": "wooden",
            "companies": "Manitoba Pool, Agricore",
            "lat": 50.35854,
            "lon": -96.95643,
            "url": "https://www.grainelevators.ca/manitoba/netley/",
            "id": "manitoba-netley"
        },
        {
            "name": "Newdale",
            "province": "Manitoba",
            "country": "Canada",
            "status": "existing",
            "type": "wooden",
            "companies": "Manitoba Pool, UGG, Cargill",
            "lat": 50.35104,
            "lon": -100.20452,
            "url": "https://www.grainelevators.ca/manitoba/newdale/",
            "id": "manitoba-newdale"
        },
        {
            "name": "Ninga",
            "province": "Manitoba",
            "country": "Canada",
            "status": "existing",
            "type": "wooden",
            "companies": "Manitoba Pool, UGG",
            "lat": 49.22648,
            "lon": -99.88772,
            "url": "https://www.grainelevators.ca/manitoba/ninga/",
            "id": "manitoba-ninga"
        },
        {
            "name": "Norman",
            "province": "Manitoba",
            "country": "Canada",
            "status": "existing",
            "type": "wooden",
            "companies": "UGG",
            "lat": 50.064166,
            "lon": -100.446762,
            "url": "https://www.grainelevators.ca/manitoba/norman/",
            "id": "manitoba-norman"
        },
        {
            "name": "Oak River",
            "province": "Manitoba",
            "country": "Canada",
            "status": "lost",
            "type": "wooden",
            "companies": "UGG",
            "lat": 50.13581,
            "lon": -100.43089,
            "url": "https://www.grainelevators.ca/manitoba/oak-river/",
            "id": "manitoba-oak-river"
        },
        {
            "name": "Oakland",
            "province": "Manitoba",
            "country": "Canada",
            "status": "lost",
            "type": "wooden",
            "companies": "Manitoba Pool",
            "lat": 50.10752,
            "lon": -98.31963,
            "url": "https://www.grainelevators.ca/manitoba/oakland/",
            "id": "manitoba-oakland"
        },
        {
            "name": "Oakner",
            "province": "Manitoba",
            "country": "Canada",
            "status": "existing",
            "type": "mixed",
            "companies": "Cargill",
            "lat": 50.72,
            "lon": -100.72,
            "url": "https://www.grainelevators.ca/manitoba/oakner/",
            "id": "manitoba-oakner"
        },
        {
            "name": "Oberon",
            "province": "Manitoba",
            "country": "Canada",
            "status": "existing",
            "type": "wooden",
            "companies": "Manitoba Pool",
            "lat": 50.048131,
            "lon": -99.479984,
            "url": "https://www.grainelevators.ca/manitoba/oberon/",
            "id": "manitoba-oberon"
        },
        {
            "name": "Petrel Junction",
            "province": "Manitoba",
            "country": "Canada",
            "status": "lost",
            "type": "wooden",
            "companies": "UGG",
            "lat": 49.98193,
            "lon": -99.39692,
            "url": "https://www.grainelevators.ca/manitoba/petrel-junction/",
            "id": "manitoba-petrel-junction"
        },
        {
            "name": "Pierson",
            "province": "Manitoba",
            "country": "Canada",
            "status": "lost",
            "type": "wooden",
            "companies": "Manitoba Pool, Paterson",
            "lat": 49.18003,
            "lon": -101.26339,
            "url": "https://www.grainelevators.ca/manitoba/pierson/",
            "id": "manitoba-pierson"
        },
        {
            "name": "Poplar Point",
            "province": "Manitoba",
            "country": "Canada",
            "status": "lost",
            "type": "wooden",
            "companies": "Manitoba Pool",
            "lat": 50.05691,
            "lon": -97.97741,
            "url": "https://www.grainelevators.ca/manitoba/poplar-point/",
            "id": "manitoba-poplar-point"
        },
        {
            "name": "Purves",
            "province": "Manitoba",
            "country": "Canada",
            "status": "existing",
            "type": "wooden",
            "companies": "Manitoba Pool",
            "lat": 49.1258164760686,
            "lon": -98.73405172550736,
            "url": "https://www.grainelevators.ca/manitoba/purves/",
            "id": "manitoba-purves"
        },
        {
            "name": "Quadra",
            "province": "Manitoba",
            "country": "Canada",
            "status": "existing",
            "type": "concrete",
            "companies": "Manitoba Pool",
            "lat": 50.55,
            "lon": -101,
            "url": "https://www.grainelevators.ca/manitoba/quadra/",
            "id": "manitoba-quadra"
        },
        {
            "name": "Rathwell",
            "province": "Manitoba",
            "country": "Canada",
            "status": "lost",
            "type": "wooden",
            "companies": "Manitoba Pool, UGG, Parrish & Heimbecker, Paterson",
            "lat": 49.64691,
            "lon": -98.54715,
            "url": "https://www.grainelevators.ca/manitoba/rathwell/",
            "id": "manitoba-rathwell"
        },
        {
            "name": "Red River South",
            "province": "Manitoba",
            "country": "Canada",
            "status": "existing",
            "type": "concrete",
            "companies": "Richardson",
            "lat": 49.25,
            "lon": -97.3,
            "url": "https://www.grainelevators.ca/manitoba/red-river-south/",
            "id": "manitoba-red-river-south"
        },
        {
            "name": "Regent",
            "province": "Manitoba",
            "country": "Canada",
            "status": "lost",
            "type": "wooden",
            "companies": "Manitoba Pool",
            "lat": 49.341710,
            "lon": -100.309650,
            "url": "https://www.grainelevators.ca/manitoba/regent/",
            "id": "manitoba-regent"
        },
        {
            "name": "Reston",
            "province": "Manitoba",
            "country": "Canada",
            "status": "existing",
            "type": "wooden",
            "companies": "Manitoba Pool, UGG",
            "lat": 49.55667,
            "lon": -101.09276,
            "url": "https://www.grainelevators.ca/manitoba/reston/",
            "id": "manitoba-reston"
        },
        {
            "name": "Ridgeville",
            "province": "Manitoba",
            "country": "Canada",
            "status": "lost",
            "type": "wooden",
            "companies": "Paterson",
            "lat": 49.06527198278367,
            "lon": -97.01297340259924,
            "url": "https://www.grainelevators.ca/manitoba/ridgeville/",
            "id": "manitoba-ridgeville"
        },
        {
            "name": "Rignold",
            "province": "Manitoba",
            "country": "Canada",
            "status": "lost",
            "type": "wooden",
            "companies": "UGG",
            "lat": 50.01972,
            "lon": -98.51465,
            "url": "https://www.grainelevators.ca/manitoba/rignold/",
            "id": "manitoba-rignold"
        },
        {
            "name": "Rivers",
            "province": "Manitoba",
            "country": "Canada",
            "status": "existing",
            "type": "wooden",
            "companies": "Manitoba Pool, UGG, Cargill",
            "lat": 50.02888,
            "lon": -100.23845,
            "url": "https://www.grainelevators.ca/manitoba/rivers/",
            "id": "manitoba-rivers"
        },
        {
            "name": "Rosenfeld",
            "province": "Manitoba",
            "country": "Canada",
            "status": "lost",
            "type": "wooden",
            "companies": "Manitoba Pool",
            "lat": 49.19919,
            "lon": -97.5496,
            "url": "https://www.grainelevators.ca/manitoba/rosenfeld/",
            "id": "manitoba-rosenfeld"
        },
        {
            "name": "Rossburn",
            "province": "Manitoba",
            "country": "Canada",
            "status": "existing",
            "type": "wooden",
            "companies": "Manitoba Pool, Cargill",
            "lat": 50.66836,
            "lon": -100.8107,
            "url": "https://www.grainelevators.ca/manitoba/rossburn/",
            "id": "manitoba-rossburn"
        },
        {
            "name": "Rounthwaite",
            "province": "Manitoba",
            "country": "Canada",
            "status": "lost",
            "type": "wooden",
            "companies": "Manitoba Pool",
            "lat": 49.67002,
            "lon": -99.79695,
            "url": "https://www.grainelevators.ca/manitoba/rounthwaite/",
            "id": "manitoba-rounthwaite"
        },
        {
            "name": "Sanford",
            "province": "Manitoba",
            "country": "Canada",
            "status": "lost",
            "type": "wooden",
            "companies": "Manitoba Pool, UGG",
            "lat": 49.6825,
            "lon": -97.44487,
            "url": "https://www.grainelevators.ca/manitoba/sanford/",
            "id": "manitoba-sanford"
        },
        {
            "name": "Selkirk",
            "province": "Manitoba",
            "country": "Canada",
            "status": "lost",
            "type": "wooden",
            "companies": "Manitoba Pool",
            "lat": 50.1436,
            "lon": -96.88452,
            "url": "https://www.grainelevators.ca/manitoba/selkirk/",
            "id": "manitoba-selkirk"
        },
        {
            "name": "Sidney",
            "province": "Manitoba",
            "country": "Canada",
            "status": "lost",
            "type": "wooden",
            "companies": "Manitoba Pool, Cargill",
            "lat": 49.90003,
            "lon": -99.07969,
            "url": "https://www.grainelevators.ca/manitoba/sidney/",
            "id": "manitoba-sidney"
        },
        {
            "name": "Sifton",
            "province": "Manitoba",
            "country": "Canada",
            "status": "lost",
            "type": "wooden",
            "companies": "UGG",
            "lat": 51.36031,
            "lon": -100.14335,
            "url": "https://www.grainelevators.ca/manitoba/sifton/",
            "id": "manitoba-sifton"
        },
        {
            "name": "Silverton",
            "province": "Manitoba",
            "country": "Canada",
            "status": "existing",
            "type": "wooden",
            "companies": "Manitoba Pool, UGG",
            "lat": 50.76896,
            "lon": -101.16217,
            "url": "https://www.grainelevators.ca/manitoba/silverton/",
            "id": "manitoba-silverton"
        },
        {
            "name": "Smart",
            "province": "Manitoba",
            "country": "Canada",
            "status": "lost",
            "type": "wooden",
            "companies": "Manitoba Pool",
            "lat": 50.00192,
            "lon": -100.05147,
            "url": "https://www.grainelevators.ca/manitoba/smart/",
            "id": "manitoba-smart"
        },
        {
            "name": "Somerset",
            "province": "Manitoba",
            "country": "Canada",
            "status": "existing",
            "type": "steel",
            "companies": null,
            "lat": 49.41219,
            "lon": -98.65876,
            "url": "https://www.grainelevators.ca/manitoba/somerset/",
            "id": "manitoba-somerset"
        },
        {
            "name": "Sommerfeld Colony",
            "province": "Manitoba",
            "country": "Canada",
            "status": "existing",
            "type": "wooden",
            "companies": null,
            "lat": 50.05613,
            "lon": -98.07248,
            "url": "https://www.grainelevators.ca/manitoba/sommerfeld-colony/",
            "id": "manitoba-sommerfeld-colony"
        },
        {
            "name": "Souris",
            "province": "Manitoba",
            "country": "Canada",
            "status": "existing",
            "type": "concrete",
            "companies": "Manitoba Pool, UGG, Viterra",
            "lat": 49.62101,
            "lon": -100.25825,
            "url": "https://www.grainelevators.ca/manitoba/souris/",
            "id": "manitoba-souris"
        },
        {
            "name": "South Lakes",
            "province": "Manitoba",
            "country": "Canada",
            "status": "existing",
            "type": "concrete",
            "companies": "Richardson",
            "lat": 50.02614465944925,
            "lon": -97.21574970249101,
            "url": "https://www.grainelevators.ca/manitoba/south-lakes/",
            "id": "manitoba-south-lakes"
        },
        {
            "name": "Sperling",
            "province": "Manitoba",
            "country": "Canada",
            "status": "lost",
            "type": "wooden",
            "companies": "Manitoba Pool, UGG, Paterson",
            "lat": 49.50811,
            "lon": -97.7054,
            "url": "https://www.grainelevators.ca/manitoba/sperling/",
            "id": "manitoba-sperling"
        },
        {
            "name": "Springhill",
            "province": "Manitoba",
            "country": "Canada",
            "status": "lost",
            "type": "wooden",
            "companies": "Manitoba Pool",
            "lat": 50.28812,
            "lon": -99.58392,
            "url": "https://www.grainelevators.ca/manitoba/springhill/",
            "id": "manitoba-springhill"
        },
        {
            "name": "Starbuck",
            "province": "Manitoba",
            "country": "Canada",
            "status": "existing",
            "type": "concrete",
            "companies": "Richardson",
            "lat": 49.76848,
            "lon": -97.61827,
            "url": "https://www.grainelevators.ca/manitoba/starbuck/",
            "id": "manitoba-starbuck"
        },
        {
            "name": "Ste. Agathe",
            "province": "Manitoba",
            "country": "Canada",
            "status": "existing",
            "type": "concrete",
            "companies": "Manitoba Pool, Agricore",
            "lat": 49.572615,
            "lon": -97.202306,
            "url": "https://www.grainelevators.ca/manitoba/ste-agathe/",
            "id": "manitoba-ste-agathe"
        },
        {
            "name": "Ste. Rose",
            "province": "Manitoba",
            "country": "Canada",
            "status": "lost",
            "type": "wooden",
            "companies": "UGG",
            "lat": 50.99971,
            "lon": -99.41719,
            "url": "https://www.grainelevators.ca/manitoba/ste-rose/",
            "id": "manitoba-ste-rose"
        },
        {
            "name": "Strathclair",
            "province": "Manitoba",
            "country": "Canada",
            "status": "lost",
            "type": "wooden",
            "companies": "Manitoba Pool, UGG",
            "lat": 50.40471,
            "lon": -100.39756,
            "url": "https://www.grainelevators.ca/manitoba/strathclair/",
            "id": "manitoba-strathclair"
        },
        {
            "name": "Swan River",
            "province": "Manitoba",
            "country": "Canada",
            "status": "lost",
            "type": "mixed",
            "companies": "Cargill",
            "lat": 52.1058,
            "lon": -101.26759,
            "url": "https://www.grainelevators.ca/manitoba/swan-river/",
            "id": "manitoba-swan-river"
        },
        {
            "name": "Swan River Valley",
            "province": "Manitoba",
            "country": "Canada",
            "status": "existing",
            "type": "wooden",
            "companies": "Richardson",
            "lat": 52.10769,
            "lon": -101.25468,
            "url": "https://www.grainelevators.ca/manitoba/swan-river-valley/",
            "id": "manitoba-swan-river-valley"
        },
        {
            "name": "Tilston",
            "province": "Manitoba",
            "country": "Canada",
            "status": "existing",
            "type": "wooden",
            "companies": "Manitoba Pool",
            "lat": 49.39427,
            "lon": -101.31344,
            "url": "https://www.grainelevators.ca/manitoba/tilston/",
            "id": "manitoba-tilston"
        },
        {
            "name": "Tucker",
            "province": "Manitoba",
            "country": "Canada",
            "status": "existing",
            "type": "concrete",
            "companies": "Manitoba Pool, Viterra",
            "lat": 49.98814784703978,
            "lon": -98.22372696202062,
            "url": "https://www.grainelevators.ca/manitoba/tucker/",
            "id": "manitoba-tucker"
        },
        {
            "name": "Tyndall",
            "province": "Manitoba",
            "country": "Canada",
            "status": "lost",
            "type": "wooden",
            "companies": "Manitoba Pool",
            "lat": 50.0828,
            "lon": -96.6589,
            "url": "https://www.grainelevators.ca/manitoba/tyndall/",
            "id": "manitoba-tyndall"
        },
        {
            "name": "Underhill",
            "province": "Manitoba",
            "country": "Canada",
            "status": "lost",
            "type": "wooden",
            "companies": null,
            "lat": 49.4436,
            "lon": -100.38699,
            "url": "https://www.grainelevators.ca/manitoba/underhill/",
            "id": "manitoba-underhill"
        },
        {
            "name": "Waskada",
            "province": "Manitoba",
            "country": "Canada",
            "status": "existing",
            "type": "wooden",
            "companies": "Agricore",
            "lat": 49.09782,
            "lon": -100.80238,
            "url": "https://www.grainelevators.ca/manitoba/waskada/",
            "id": "manitoba-waskada"
        },
        {
            "name": "Wawanesa",
            "province": "Manitoba",
            "country": "Canada",
            "status": "lost",
            "type": "wooden",
            "companies": "Manitoba Pool",
            "lat": 49.59501,
            "lon": -99.68476,
            "url": "https://www.grainelevators.ca/manitoba/wawanesa/",
            "id": "manitoba-wawanesa"
        },
        {
            "name": "Westbourne",
            "province": "Manitoba",
            "country": "Canada",
            "status": "lost",
            "type": "wooden",
            "companies": "UGG",
            "lat": 50.12972,
            "lon": -98.58185,
            "url": "https://www.grainelevators.ca/manitoba/westbourne/",
            "id": "manitoba-westbourne"
        },
        {
            "name": "Westroc",
            "province": "Manitoba",
            "country": "Canada",
            "status": "existing",
            "type": "wooden",
            "companies": "Manitoba Pool",
            "lat": 50.1258,
            "lon": -98.64316,
            "url": "https://www.grainelevators.ca/manitoba/westroc/",
            "id": "manitoba-westroc"
        },
        {
            "name": "Woodnorth",
            "province": "Manitoba",
            "country": "Canada",
            "status": "lost",
            "type": "wooden",
            "companies": "Manitoba Pool, UGG",
            "lat": 49.7325,
            "lon": -101.08203,
            "url": "https://www.grainelevators.ca/manitoba/woodnorth/",
            "id": "manitoba-woodnorth"
        },
        {
            "name": "Abbey",
            "province": "Saskatchewan",
            "country": "Canada",
            "status": "existing",
            "type": "wooden",
            "companies": "pool",
            "lat": 50.7345503,
            "lon": -108.7579928,
            "url": "https://www.grainelevators.ca/saskatchewan/abbey/",
            "id": "saskatchewan-abbey"
        },
        {
            "name": "Abbott",
            "province": "Saskatchewan",
            "country": "Canada",
            "status": "lost",
            "type": "wooden",
            "companies": "pool",
            "lat": 49.58337,
            "lon": -104.40109,
            "url": "https://www.grainelevators.ca/saskatchewan/abbott/",
            "id": "saskatchewan-abbott"
        },
        {
            "name": "Aberdeen",
            "province": "Saskatchewan",
            "country": "Canada",
            "status": "existing",
            "type": "wooden",
            "companies": "pool, ugg, cargill, pioneer",
            "lat": 52.3271538,
            "lon": -106.2900807,
            "url": "https://www.grainelevators.ca/saskatchewan/aberdeen/",
            "id": "saskatchewan-aberdeen"
        },
        {
            "name": "Admiral",
            "province": "Saskatchewan",
            "country": "Canada",
            "status": "unknown",
            "type": "wooden",
            "companies": null,
            "lat": 49.7130748,
            "lon": -108.0036721,
            "url": "https://www.grainelevators.ca/saskatchewan/admiral/",
            "id": "saskatchewan-admiral"
        },
        {
            "name": "Alameda",
            "province": "Saskatchewan",
            "country": "Canada",
            "status": "lost",
            "type": "wooden",
            "companies": "agricore, ugg",
            "lat": 49.26675,
            "lon": -102.2842,
            "url": "https://www.grainelevators.ca/saskatchewan/alameda/",
            "id": "saskatchewan-alameda"
        },
        {
            "name": "Allan",
            "province": "Saskatchewan",
            "country": "Canada",
            "status": "lost",
            "type": "wooden",
            "companies": "pool",
            "lat": 51.893,
            "lon": -106.054,
            "url": "https://www.grainelevators.ca/saskatchewan/allan/",
            "id": "saskatchewan-allan"
        },
        {
            "name": "Aneroid",
            "province": "Saskatchewan",
            "country": "Canada",
            "status": "existing",
            "type": "wooden",
            "companies": "pool",
            "lat": 49.7175908,
            "lon": -107.2967525,
            "url": "https://www.grainelevators.ca/saskatchewan/aneroid/",
            "id": "saskatchewan-aneroid"
        },
        {
            "name": "Antler",
            "province": "Saskatchewan",
            "country": "Canada",
            "status": "existing",
            "type": "wooden",
            "companies": "pool",
            "lat": 49.5679596,
            "lon": -101.4581415,
            "url": "https://www.grainelevators.ca/saskatchewan/antler/",
            "id": "saskatchewan-antler"
        },
        {
            "name": "Arborfield",
            "province": "Saskatchewan",
            "country": "Canada",
            "status": "existing",
            "type": "wooden",
            "companies": "ugg",
            "lat": 53.105568,
            "lon": -103.660126,
            "url": "https://www.grainelevators.ca/saskatchewan/arborfield/",
            "id": "saskatchewan-arborfield"
        },
        {
            "name": "Arcola",
            "province": "Saskatchewan",
            "country": "Canada",
            "status": "existing",
            "type": "wooden",
            "companies": "pool",
            "lat": 49.6350309,
            "lon": -102.4906662,
            "url": "https://www.grainelevators.ca/saskatchewan/arcola/",
            "id": "saskatchewan-arcola"
        },
        {
            "name": "Argo",
            "province": "Saskatchewan",
            "country": "Canada",
            "status": "lost",
            "type": "wooden",
            "companies": null,
            "lat": 52.0168,
            "lon": -108.10136,
            "url": "https://www.grainelevators.ca/saskatchewan/argo/",
            "id": "saskatchewan-argo"
        },
        {
            "name": "Asquith",
            "province": "Saskatchewan",
            "country": "Canada",
            "status": "unknown",
            "type": "wooden",
            "companies": null,
            "lat": 52.1345075,
            "lon": -107.2284917,
            "url": "https://www.grainelevators.ca/saskatchewan/asquith/",
            "id": "saskatchewan-asquith"
        },
        {
            "name": "Assiniboia",
            "province": "Saskatchewan",
            "country": "Canada",
            "status": "existing",
            "type": "concrete",
            "companies": "pool, ugg, richardson, pioneer, paterson",
            "lat": 49.6311192,
            "lon": -105.9926494,
            "url": "https://www.grainelevators.ca/saskatchewan/assiniboia/",
            "id": "saskatchewan-assiniboia"
        },
        {
            "name": "Avonlea",
            "province": "Saskatchewan",
            "country": "Canada",
            "status": "existing",
            "type": "wooden",
            "companies": "pool",
            "lat": 50.0145867,
            "lon": -105.0556457,
            "url": "https://www.grainelevators.ca/saskatchewan/avonlea/",
            "id": "saskatchewan-avonlea"
        },